[{"ratePerMonth":8754,"name":"Abe","streetName":"9033 Henriette Mount","location":"O'Connerland, Switzerland","beds":3,"bathRooms":5,"propertyType":"Apartment"},{"ratePerMonth":7481,"name":"Lesly","streetName":"3278 Christophe Grove","location":"Kerlukefield, Nigeria","beds":6,"bathRooms":2,"propertyType":"Townhouse"},{"ratePerMonth":3242,"name":"Estrella","streetName":"73359 Torphy Freeway","location":"Isaiasville, Haiti","beds":3,"bathRooms":5,"propertyType":"House"},{"ratePerMonth":2056,"name":"Mitchel","streetName":"3308 Koch Drives","location":"Fort Johanmouth, Mayotte","beds":3,"bathRooms":5,"propertyType":"Condo"},{"ratePerMonth":7791,"name":"Sheridan","streetName":"8731 Hallie Route","location":"New Lupestad, Gambia","beds":4,"bathRooms":3,"propertyType":"Villa"},{"ratePerMonth":4547,"name":"Malcolm","streetName":"986 Padberg Falls","location":"East Medaport, Romania","beds":5,"bathRooms":4,"propertyType":"Apartment"},{"ratePerMonth":1807,"name":"Xavier","streetName":"961 Dibbert Forks","location":"Catonsville, India","beds":1,"bathRooms":4,"propertyType":"Villa"},{"ratePerMonth":2518,"name":"Vergie","streetName":"33289 Kassulke Shoals","location":"Lake Carolinetown, Tunisia","beds":2,"bathRooms":1,"propertyType":"Apartment"},{"ratePerMonth":9000,"name":"Nicolas","streetName":"74483 Evie Valleys","location":"Katelynnhaven, Morocco","beds":8,"bathRooms":1,"propertyType":"Condo"},{"ratePerMonth":1042,"name":"Kellen","streetName":"256 Rippin Dale","location":"Colefurt, Trinidad and Tobago","beds":2,"bathRooms":5,"propertyType":"House"},{"ratePerMonth":9686,"name":"Constantin","streetName":"512 Ceasar Flats","location":"Fort Keelyview, Macao","beds":7,"bathRooms":5,"propertyType":"Condo"},{"ratePerMonth":7422,"name":"Mikel","streetName":"620 Curt Unions","location":"South Katelynbury, Guadeloupe","beds":1,"bathRooms":2,"propertyType":"Condo"},{"ratePerMonth":6261,"name":"Abdullah","streetName":"277 Benton Isle","location":"Sallyport, China","beds":4,"bathRooms":1,"propertyType":"Townhouse"},{"ratePerMonth":2946,"name":"Zoe","streetName":"1172 Blanda Motorway","location":"Port Krystal, South Africa","beds":3,"bathRooms":5,"propertyType":"Apartment"},{"ratePerMonth":1526,"name":"Lavern","streetName":"32693 Wolff Streets","location":"Fort Nicoville, Portugal","beds":8,"bathRooms":2,"propertyType":"House"},{"ratePerMonth":9459,"name":"Oma","streetName":"708 Catherine Harbor","location":"Fort Devon, Bahrain","beds":10,"bathRooms":1,"propertyType":"Townhouse"},{"ratePerMonth":8175,"name":"Krista","streetName":"133 Keeling Hollow","location":"Christianaland, Singapore","beds":9,"bathRooms":5,"propertyType":"House"},{"ratePerMonth":9041,"name":"Erling","streetName":"428 Kilback Village","location":"Forrestmouth, Burkina Faso","beds":8,"bathRooms":2,"propertyType":"Villa"},{"ratePerMonth":9362,"name":"Charity","streetName":"14359 Ivy Lodge","location":"Corona, Northern Mariana Islands","beds":6,"bathRooms":5,"propertyType":"Villa"},{"ratePerMonth":8291,"name":"Bernita","streetName":"86673 Rempel Valley","location":"New Isaifort, Estonia","beds":6,"bathRooms":3,"propertyType":"House"},{"ratePerMonth":7188,"name":"Graham","streetName":"57545 Kuphal Parks","location":"Clarksville, Colombia","beds":9,"bathRooms":1,"propertyType":"Apartment"},{"ratePerMonth":6412,"name":"Ophelia","streetName":"11436 Miller Mission","location":"Johnsonview, China","beds":2,"bathRooms":1,"propertyType":"House"},{"ratePerMonth":4046,"name":"Liza","streetName":"66722 Reilly Cliff","location":"Ryanworth, Monaco","beds":6,"bathRooms":2,"propertyType":"Villa"},{"ratePerMonth":5958,"name":"Hans","streetName":"279 Wilfredo Harbors","location":"Brandynborough, Central African Republic","beds":2,"bathRooms":1,"propertyType":"Condo"},{"ratePerMonth":4232,"name":"Hayden","streetName":"15725 Isaiah Wall","location":"East Ervin, Sint Maarten","beds":1,"bathRooms":3,"propertyType":"Townhouse"},{"ratePerMonth":1954,"name":"Harmon","streetName":"456 Nicolas Villages","location":"Houston, Cocos (Keeling) Islands","beds":9,"bathRooms":3,"propertyType":"House"},{"ratePerMonth":9778,"name":"Scot","streetName":"927 Emory Bypass","location":"Gislasonport, Macao","beds":1,"bathRooms":4,"propertyType":"Condo"},{"ratePerMonth":5752,"name":"Adelbert","streetName":"96118 Sylvan Drive","location":"North Zolaburgh, Gibraltar","beds":1,"bathRooms":1,"propertyType":"Apartment"},{"ratePerMonth":6568,"name":"Buck","streetName":"23285 Jose Forest","location":"East Carson, Jamaica","beds":10,"bathRooms":5,"propertyType":"Townhouse"},{"ratePerMonth":2232,"name":"Bret","streetName":"104 Linnie Locks","location":"Jayton, Slovakia","beds":6,"bathRooms":1,"propertyType":"Villa"},{"ratePerMonth":777,"name":"Nicklaus","streetName":"94294 Johnson Rapids","location":"Baumbachmouth, Qatar","beds":4,"bathRooms":3,"propertyType":"Apartment"},{"ratePerMonth":2016,"name":"Harmony","streetName":"762 Dare Lake","location":"Citrus Heights, Monaco","beds":6,"bathRooms":5,"propertyType":"Apartment"},{"ratePerMonth":3994,"name":"Royal","streetName":"792 Waelchi Fords","location":"Encinitas, India","beds":5,"bathRooms":4,"propertyType":"Apartment"},{"ratePerMonth":4688,"name":"Coleman","streetName":"952 Angel Divide","location":"Dothan, Venezuela","beds":1,"bathRooms":4,"propertyType":"Townhouse"},{"ratePerMonth":8490,"name":"Francis","streetName":"130 Goyette Views","location":"Mireyaland, Nauru","beds":4,"bathRooms":5,"propertyType":"Townhouse"},{"ratePerMonth":4606,"name":"Marquis","streetName":"864 Ernser Lake","location":"West Sallieside, United States Minor Outlying Islands","beds":9,"bathRooms":5,"propertyType":"Condo"},{"ratePerMonth":2535,"name":"Roberto","streetName":"9316 Sadie Mills","location":"Anselland, Dominican Republic","beds":3,"bathRooms":4,"propertyType":"Townhouse"},{"ratePerMonth":6806,"name":"Courtney","streetName":"24070 Von Ferry","location":"Rancho Palos Verdes, Kyrgyz Republic","beds":3,"bathRooms":4,"propertyType":"Villa"},{"ratePerMonth":8627,"name":"Malcolm","streetName":"1205 Bernhard Summit","location":"Collinschester, Ireland","beds":7,"bathRooms":2,"propertyType":"Condo"},{"ratePerMonth":2968,"name":"Dawson","streetName":"9913 Dena Forge","location":"Donavonstead, British Indian Ocean Territory (Chagos Archipelago)","beds":6,"bathRooms":3,"propertyType":"Apartment"},{"ratePerMonth":3721,"name":"Liam","streetName":"919 Leuschke Plain","location":"Alejandrashire, Ethiopia","beds":10,"bathRooms":3,"propertyType":"Townhouse"},{"ratePerMonth":5188,"name":"Rebekah","streetName":"8396 Prohaska Mews","location":"New Elton, Russian Federation","beds":3,"bathRooms":3,"propertyType":"Apartment"},{"ratePerMonth":8275,"name":"Monserrate","streetName":"789 Jess Oval","location":"Lake Kiarraside, Andorra","beds":6,"bathRooms":2,"propertyType":"House"},{"ratePerMonth":2933,"name":"Leanne","streetName":"7974 Jadon Cape","location":"Enid, Maldives","beds":7,"bathRooms":3,"propertyType":"Condo"},{"ratePerMonth":7237,"name":"Nikko","streetName":"5104 Bosco River","location":"Lake Malachi, Aruba","beds":7,"bathRooms":1,"propertyType":"Condo"},{"ratePerMonth":9239,"name":"Lizeth","streetName":"923 Katharina Gateway","location":"Kennewick, Solomon Islands","beds":10,"bathRooms":5,"propertyType":"House"},{"ratePerMonth":6994,"name":"Jett","streetName":"67631 Milo Loop","location":"Gerholdtown, Saint Kitts and Nevis","beds":5,"bathRooms":2,"propertyType":"Condo"},{"ratePerMonth":733,"name":"Brian","streetName":"94082 Jones Isle","location":"Carterland, Belize","beds":7,"bathRooms":5,"propertyType":"Apartment"},{"ratePerMonth":9757,"name":"Meaghan","streetName":"443 Helga Groves","location":"Sagetown, Belarus","beds":5,"bathRooms":3,"propertyType":"Apartment"},{"ratePerMonth":2893,"name":"Adam","streetName":"7675 Kaylie Neck","location":"Lucianochester, Liechtenstein","beds":2,"bathRooms":2,"propertyType":"Villa"},{"ratePerMonth":7616,"name":"Edmond","streetName":"122 Becker Spur","location":"Celiaberg, Guinea-Bissau","beds":7,"bathRooms":5,"propertyType":"Villa"},{"ratePerMonth":2489,"name":"Darrion","streetName":"7722 Mosciski Meadow","location":"Krajciktown, Romania","beds":2,"bathRooms":5,"propertyType":"Townhouse"},{"ratePerMonth":7277,"name":"Marina","streetName":"160 Emard Passage","location":"Fort Christastead, Guyana","beds":8,"bathRooms":4,"propertyType":"House"},{"ratePerMonth":7695,"name":"Amiya","streetName":"9648 Herminio Spurs","location":"South Kiera, French Polynesia","beds":2,"bathRooms":5,"propertyType":"Condo"},{"ratePerMonth":1915,"name":"Axel","streetName":"5732 Mraz Place","location":"Zellahaven, Guam","beds":8,"bathRooms":3,"propertyType":"Townhouse"},{"ratePerMonth":8125,"name":"Doris","streetName":"729 Glennie Bypass","location":"Lake Viola, Guatemala","beds":8,"bathRooms":3,"propertyType":"Apartment"},{"ratePerMonth":8089,"name":"Terrance","streetName":"9707 Doris Drives","location":"Fort Maida, Ireland","beds":6,"bathRooms":2,"propertyType":"Apartment"},{"ratePerMonth":4228,"name":"Madilyn","streetName":"14890 Predovic Via","location":"Schultzport, Republic of Korea","beds":5,"bathRooms":4,"propertyType":"Apartment"},{"ratePerMonth":5515,"name":"Lonzo","streetName":"5267 Lucienne Land","location":"Philadelphia, Lebanon","beds":2,"bathRooms":2,"propertyType":"Apartment"},{"ratePerMonth":6894,"name":"Dean","streetName":"7280 Nienow Walks","location":"Fort Hailiechester, Bonaire, Sint Eustatius and Saba","beds":5,"bathRooms":3,"propertyType":"Townhouse"},{"ratePerMonth":8141,"name":"Lavina","streetName":"890 Aric Course","location":"Denafort, Micronesia","beds":5,"bathRooms":1,"propertyType":"Townhouse"},{"ratePerMonth":5296,"name":"Tristin","streetName":"1031 Connelly Rest","location":"Pfefferworth, Liberia","beds":8,"bathRooms":3,"propertyType":"Apartment"},{"ratePerMonth":7304,"name":"Anabel","streetName":"79515 Koelpin Walks","location":"Murazikfurt, United States Minor Outlying Islands","beds":1,"bathRooms":1,"propertyType":"Condo"},{"ratePerMonth":1789,"name":"Audra","streetName":"94187 Bahringer Knoll","location":"Wainoshire, Tajikistan","beds":8,"bathRooms":2,"propertyType":"Condo"},{"ratePerMonth":5308,"name":"Christop","streetName":"364 Stamm Lights","location":"Wheaton, Lesotho","beds":7,"bathRooms":1,"propertyType":"House"},{"ratePerMonth":3272,"name":"Walter","streetName":"5304 McGlynn Hill","location":"Lake Amieton, Mexico","beds":9,"bathRooms":4,"propertyType":"Villa"},{"ratePerMonth":941,"name":"Duncan","streetName":"8934 Windler Trace","location":"Eden Prairie, Austria","beds":5,"bathRooms":2,"propertyType":"Apartment"},{"ratePerMonth":5450,"name":"Stefanie","streetName":"99952 Effertz Oval","location":"Lake Dave, Cambodia","beds":9,"bathRooms":1,"propertyType":"House"},{"ratePerMonth":3969,"name":"Shanie","streetName":"76868 Wiza Common","location":"Schroederchester, Benin","beds":10,"bathRooms":5,"propertyType":"House"},{"ratePerMonth":3642,"name":"Charlotte","streetName":"902 Cortez Route","location":"Port Dellaland, Congo","beds":6,"bathRooms":4,"propertyType":"Townhouse"},{"ratePerMonth":1740,"name":"Samir","streetName":"87240 Ernser Trace","location":"Charlottesville, Jersey","beds":4,"bathRooms":4,"propertyType":"House"},{"ratePerMonth":535,"name":"Devante","streetName":"7390 Romaguera Streets","location":"Lake Valentina, Martinique","beds":5,"bathRooms":2,"propertyType":"Apartment"},{"ratePerMonth":8122,"name":"Maxwell","streetName":"1818 Jacobson Ferry","location":"Bend, Kenya","beds":5,"bathRooms":3,"propertyType":"Villa"},{"ratePerMonth":4775,"name":"Felipe","streetName":"33405 Melody Brook","location":"Garrisonstad, Tokelau","beds":9,"bathRooms":3,"propertyType":"Condo"},{"ratePerMonth":8698,"name":"Jairo","streetName":"50866 Kuhlman Flats","location":"Jodieboro, Dominica","beds":6,"bathRooms":3,"propertyType":"Apartment"},{"ratePerMonth":3602,"name":"Kaley","streetName":"776 Rupert Circle","location":"Champaign, Angola","beds":3,"bathRooms":4,"propertyType":"Villa"},{"ratePerMonth":2721,"name":"Kelvin","streetName":"299 O'Kon Land","location":"Kunzestead, Madagascar","beds":3,"bathRooms":3,"propertyType":"Apartment"},{"ratePerMonth":7466,"name":"Bailee","streetName":"8013 Hilario Crest","location":"Rosaleestad, Denmark","beds":7,"bathRooms":1,"propertyType":"Condo"},{"ratePerMonth":3302,"name":"Elmer","streetName":"6604 Denesik Walk","location":"South Serena, Palestine","beds":10,"bathRooms":3,"propertyType":"House"},{"ratePerMonth":3729,"name":"Alexandrea","streetName":"7984 Bailey Route","location":"Haneland, Finland","beds":7,"bathRooms":1,"propertyType":"Condo"},{"ratePerMonth":3139,"name":"Trevor","streetName":"21394 Braden Meadow","location":"Tonawanda, Christmas Island","beds":2,"bathRooms":4,"propertyType":"Villa"},{"ratePerMonth":4796,"name":"Bianka","streetName":"134 Witting Circle","location":"West Anissaborough, Nauru","beds":1,"bathRooms":2,"propertyType":"Townhouse"},{"ratePerMonth":7049,"name":"Favian","streetName":"95085 Arden Shores","location":"Jeramyside, Seychelles","beds":8,"bathRooms":2,"propertyType":"Villa"},{"ratePerMonth":1548,"name":"Myrl","streetName":"4052 Maxwell Manor","location":"Pamelafield, Serbia","beds":5,"bathRooms":2,"propertyType":"Townhouse"},{"ratePerMonth":3961,"name":"Ibrahim","streetName":"106 Shanna Springs","location":"Sauerborough, Guernsey","beds":3,"bathRooms":5,"propertyType":"Apartment"},{"ratePerMonth":2942,"name":"Eden","streetName":"147 Schaefer Brook","location":"New Julianamouth, Ghana","beds":5,"bathRooms":2,"propertyType":"Villa"},{"ratePerMonth":5919,"name":"Juvenal","streetName":"942 Jonathan Place","location":"Brycenshire, Guam","beds":1,"bathRooms":1,"propertyType":"Villa"},{"ratePerMonth":692,"name":"Oda","streetName":"31558 Watsica View","location":"East Madisen, South Africa","beds":2,"bathRooms":1,"propertyType":"House"},{"ratePerMonth":4920,"name":"Hilton","streetName":"9409 Brandy Wall","location":"New Kavonboro, Haiti","beds":8,"bathRooms":2,"propertyType":"Apartment"},{"ratePerMonth":8414,"name":"Sadie","streetName":"982 Gibson Freeway","location":"Addisonview, Togo","beds":8,"bathRooms":5,"propertyType":"Condo"},{"ratePerMonth":9153,"name":"Sabrina","streetName":"3480 Kutch Plain","location":"Bernierboro, Oman","beds":5,"bathRooms":4,"propertyType":"Apartment"},{"ratePerMonth":4995,"name":"Vella","streetName":"2583 Xander Stream","location":"Sengerview, Somalia","beds":7,"bathRooms":4,"propertyType":"Villa"},{"ratePerMonth":3869,"name":"Isabelle","streetName":"2491 Bogan Garden","location":"Port Ike, Turkmenistan","beds":5,"bathRooms":5,"propertyType":"Townhouse"},{"ratePerMonth":5882,"name":"Shanie","streetName":"996 Flatley Wall","location":"Herzoghaven, Israel","beds":5,"bathRooms":3,"propertyType":"Villa"},{"ratePerMonth":7468,"name":"Marlin","streetName":"9470 Jerad Shoals","location":"Corpus Christi, Brunei Darussalam","beds":4,"bathRooms":2,"propertyType":"House"},{"ratePerMonth":1766,"name":"Fredrick","streetName":"375 Cummerata Mall","location":"Schmidtfield, Bahrain","beds":3,"bathRooms":1,"propertyType":"Villa"},{"ratePerMonth":8666,"name":"Beulah","streetName":"326 Cleveland Canyon","location":"Port Hollisville, Uganda","beds":7,"bathRooms":5,"propertyType":"Condo"},{"ratePerMonth":2950,"name":"Paula","streetName":"5830 Larue Mountains","location":"West Antonia, Sao Tome and Principe","beds":4,"bathRooms":2,"propertyType":"Villa"},{"ratePerMonth":3700,"name":"Jimmy","streetName":"16653 April Pine","location":"Port Josiahfort, Angola","beds":5,"bathRooms":2,"propertyType":"Townhouse"},{"ratePerMonth":3858,"name":"Vada","streetName":"4963 Alfredo Harbor","location":"Fort Ovahaven, Yemen","beds":6,"bathRooms":4,"propertyType":"Townhouse"}]